{
    "stores": [
        {
            "id": 1,
            "label": "Magalu",
            "logo": "https://logodownload.org/wp-content/uploads/2014/06/magalu-logo-1.png",
            "localization": {
                "lat": "-23.674280",
                "lng": "-46.678219"
            },
            "address": {
                "street": "Av. Interlagos, 2255",
                "zipcode": "04661-200",
                "city": "São Paulo",
                "state": "SP"
            }
        },
        {
            "id": 2,
            "label": "Casas Bahia",
            "logo": "https://upload.wikimedia.org/wikipedia/commons/thumb/e/e6/Casas_Bahia_logo.svg/1280px-Casas_Bahia_logo.svg.png",
            "localization": {
                "lat": "-23.678110",
                "lng": "-46.697392"
            },
            "address": {
                "street": "Av. das Nações Unidas, 22540",
                "zipcode": "04295-030",
                "city": "São Paulo",
                "state": "SP"
            }
        },
        {
            "id": 3,
            "label": "Extra Hiper Mercados",
            "logo": "https://logodownload.org/wp-content/uploads/2014/12/extra-logo-mercado.jpg",
            "localization": {
                "lat": "-23.663850",
                "lng": "-46.679640"
            },
            "address": {
                "street": "Av. Sargento Geraldo Sant'Ana, 1491",
                "zipcode": "04674-225",
                "city": "São Paulo",
                "state": "SP"
            }
        }
    ],
    "discounts": [
        {
            "store": 1,
            "value": 15,
            "expires_in": "12/15/2021"
        },
        {
            "store": 2,
            "value": 10,
            "expires_in": "12/15/2021"
        },
        {
            "store": 3,
            "value": 20,
            "expires_in": "12/15/2021"
        }
    ]
}